,City Name,Latitude,Longitude,Temperature,Humidity,Cloudiness,Wind Speed,City ID,DateTime
0,cave,41.911832,12.975011,78.22,53.0,43.0,2.91,3170626,1626805046
1,bismarck,45.606121,-100.486461,87.82,40.0,1.0,18.41,5767189,1626805046
2,la cruz,23.050818,-107.444963,84.72,67.0,7.0,3.6,3996322,1626805047
3,dabakala,8.912162,-4.054732,79.12,69.0,94.0,3.29,2290609,1626805047
4,zolotinka,55.802148,125.452587,55.26,99.0,95.0,4.07,2014718,1626805047
5,sumenep,-6.186891,114.191235,81.81,78.0,94.0,14.07,1626099,1626805047
6,mundgod,14.937948,75.039931,70.81,96.0,100.0,8.63,1262510,1626805048
7,dalbandin,27.423248,64.493377,87.55,13.0,22.0,7.72,1165955,1626805048
8,mezen,65.92122,44.233646,52.95,94.0,100.0,4.41,553609,1626805048
9,osa,53.232848,103.926855,59.47,74.0,99.0,2.3,2026544,1626805048
10,alegrete,-30.175986,-55.750207,56.26,48.0,89.0,7.43,3472638,1626805049
11,buchanan,5.219879,-10.431356,79.11,72.0,95.0,16.89,2278158,1626805049
12,buqayq,25.286336,48.280557,102.96,28.0,98.0,10.02,109571,1626805049
13,buzmeyin,38.92421,58.308187,97.74,12.0,88.0,9.13,162158,1626805049
14,lewistown,47.026337,-108.726738,82.9,41.0,100.0,8.68,5686862,1626805050
15,darapidap,17.13157,119.839326,81.64,85.0,100.0,15.79,1715478,1626805050
16,angul,20.801064,85.144931,83.28,77.0,100.0,2.91,1278593,1626805050
17,kermanshah,34.521642,47.01864,87.85,15.0,37.0,7.4,23814,1626805050
18,hongjiang,26.6294,109.735882,74.64,92.0,50.0,0.83,1797271,1626805051
19,gobabis,-22.366912,20.277427,56.62,27.0,0.0,7.02,3371205,1626805051
20,narang,31.787907,74.420299,78.84,79.0,67.0,8.77,1178915,1626805051
21,moussoro,14.180094,16.08703,94.82,33.0,94.0,3.13,2427336,1626805051
22,grieskirchen,48.263176,13.94107,67.77,64.0,20.0,6.91,2768552,1626805052
23,tauramena,4.957904,-72.592165,82.96,68.0,70.0,3.0,3667355,1626805052
24,stornoway,58.684916,-6.525248,58.24,86.0,98.0,2.13,2649966,1626805052
25,romanovskaya,47.645905,41.980199,88.11,30.0,47.0,3.56,542143,1626805052
26,bacabal,-4.387834,-44.732744,88.18,52.0,44.0,6.13,3406910,1626805053
27,aktau,44.105396,50.960287,81.63,42.0,0.0,9.01,608398,1626805053
29,autun,47.006741,3.968356,78.49,65.0,0.0,6.44,3036933,1626805054
30,brandon,43.881204,-96.349151,80.64,57.0,1.0,3.44,5041752,1626805054
31,frontera,19.706108,-93.108691,83.8,73.0,20.0,9.95,3527545,1626805054
32,clonakilty,50.529125,-8.425001,68.79,82.0,45.0,10.54,2965887,1626805054
33,esso,56.776439,159.113249,49.6,96.0,95.0,2.66,2124220,1626805055
34,truth or consequences,33.156407,-106.721758,77.92,39.0,39.0,3.71,5465283,1626805055
35,hirna,8.660427,41.417601,71.78,53.0,79.0,10.92,334700,1626805055
37,yambio,3.965585,27.766637,69.1,85.0,68.0,2.24,219496,1626805056
38,selma,32.284875,-87.585129,75.51,78.0,88.0,7.43,4094997,1626805056
39,gritsovskiy,54.40779,38.102557,65.86,64.0,22.0,7.38,526528,1626805056
40,altamira,-3.782826,-53.682416,96.49,29.0,15.0,3.8,3393129,1626805056
42,dodge city,37.598402,-99.901878,82.33,42.0,1.0,5.75,4271650,1626805057
44,belen,34.71874,-107.286102,71.13,35.0,80.0,1.99,5475044,1626805057
45,nakamura,32.685345,133.546682,79.72,76.0,100.0,20.42,1855891,1626805058
46,san borja,-15.392375,-66.052339,77.43,23.0,98.0,3.98,3908528,1626805058
47,sembakung,4.144762,116.351688,68.61,99.0,100.0,1.72,1637339,1626805058
48,tuensang,25.870228,95.216232,64.15,98.0,100.0,1.66,1254133,1626805058
49,imeni babushkina,60.061741,43.184697,59.22,76.0,62.0,3.94,553816,1626805059
50,las vegas,35.614203,-104.410313,83.75,34.0,88.0,5.79,5480275,1626805059
51,dien bien,22.262898,102.466674,70.65,100.0,99.0,0.65,1800712,1626805059
52,san rafael,-35.185712,-68.187411,67.42,8.0,87.0,3.8,3832803,1626805059
53,aybak,35.885672,67.872904,59.16,29.0,12.0,7.83,1422873,1626805060
54,prince george,54.358182,-122.107551,62.02,92.0,81.0,2.01,5961516,1626805060
58,tigil,58.50158,158.036524,47.39,89.0,98.0,16.55,2120612,1626805061
59,dafeng,33.554422,121.643437,79.32,89.0,70.0,16.22,7527663,1626805061
60,jining,42.114801,113.212885,68.04,73.0,0.0,12.88,2033791,1626805061
61,suez,29.310106,33.455215,79.77,34.0,0.0,19.69,355182,1626805062
62,mo i rana,66.551106,14.218367,34.14,96.0,100.0,5.41,3141217,1626805062
63,virudunagar,9.63124,78.014811,86.32,51.0,68.0,8.28,1253113,1626805062
65,dorokhovo,55.317875,36.231947,63.14,70.0,27.0,1.61,475701,1626805063
66,chulman,56.389496,127.125625,58.32,97.0,94.0,3.58,2025261,1626805063
67,da nang,17.16378,109.117341,85.59,75.0,100.0,17.63,1796556,1626805063
68,bibiani,6.482529,-2.747424,75.69,85.0,62.0,3.24,2303060,1626805064
69,hvolsvollur,64.024868,-18.996637,64.44,65.0,18.0,16.04,3337406,1626805064
70,san ramon de la nueva oran,-23.881881,-63.023026,72.68,14.0,35.0,6.96,3858204,1626805064
71,deloraine,48.956608,-100.342848,74.5,59.0,100.0,13.82,5688106,1626805064
73,sungaipenuh,-2.51008,100.242306,82.38,74.0,61.0,6.15,7104275,1626805065
74,tambun,-5.529139,107.303373,82.92,71.0,30.0,6.55,1629710,1626805065
77,concordia,-31.016394,-58.79855,60.37,36.0,33.0,9.06,3433956,1626805066
78,manama,26.435789,50.757562,95.94,73.0,98.0,18.68,290123,1626805066
79,shache,37.861631,77.705978,77.72,39.0,91.0,3.74,1346620,1626805066
80,save,8.453823,2.477624,80.38,67.0,99.0,5.3,2391893,1626805067
81,frankfurt,50.068363,8.641658,74.23,40.0,0.0,7.0,7290401,1626805067
82,peleduy,60.507224,113.516141,53.37,92.0,82.0,2.42,2020838,1626805067
84,bamako,12.412922,-7.782651,89.58,34.0,52.0,3.47,2451350,1626805068
85,kerman,30.765231,58.042365,100.17,7.0,0.0,9.42,128234,1626805068
86,whitley bay,55.414465,-0.893894,67.05,86.0,0.0,10.04,2657362,1626805068
87,iralaya,15.885412,-82.301694,83.12,83.0,100.0,19.77,3608828,1626805068
88,palmas,-9.975936,-47.5449,98.8,15.0,0.0,6.98,3474575,1626805069
89,san mateo ixtatan,16.458499,-91.289482,83.25,44.0,25.0,4.85,3816362,1626805069
90,zhezkazgan,47.995872,66.256224,73.11,45.0,0.0,15.46,1516593,1626805069
91,acuna,29.120045,-102.019661,77.56,49.0,4.0,10.65,4013728,1626805069
92,norrkoping,58.519505,16.397103,71.2,37.0,75.0,5.75,2676215,1626805070
93,saginaw,43.38707,-84.077707,84.22,54.0,75.0,16.11,5009717,1626805070
94,mohan,26.718972,80.604172,80.6,88.0,99.0,4.38,1262928,1626805070
95,olive branch,34.915931,-89.920505,82.09,77.0,75.0,1.01,4423655,1626805070
96,barranca,-4.091433,-76.501632,85.1,52.0,78.0,4.52,3699427,1626805071
97,niquero,19.472934,-77.672547,84.22,75.0,3.0,14.14,3545981,1626805071
99,mega,3.801314,38.281315,77.05,49.0,90.0,7.92,331259,1626805071
100,salavat,53.383229,55.797467,69.37,74.0,62.0,8.25,499292,1626805072
101,tromso,69.569969,19.131972,42.06,87.0,75.0,11.5,3133895,1626805072
102,gamboma,-2.2275,15.584438,84.24,27.0,9.0,1.86,2255422,1626805072
103,uirauna,-6.259173,-38.525333,89.76,30.0,34.0,7.78,3396116,1626805072
104,chapleau,47.63182,-82.876773,57.47,54.0,98.0,10.09,6086983,1626805073
105,dalvik,66.438255,-19.371616,52.45,82.0,25.0,23.71,2627130,1626805073
107,glendive,46.201425,-104.409053,91.99,29.0,1.0,28.77,5638252,1626805073
108,hue,17.686239,108.374194,85.15,77.0,96.0,22.91,1786622,1626805074
109,rybnoye,54.583217,39.439944,70.92,58.0,35.0,6.85,818964,1626805074
110,alim,8.951086,121.382305,84.11,75.0,100.0,16.58,1721082,1626805074
111,mahayag,9.953403,124.284222,77.74,82.0,100.0,10.58,1703597,1626805074
112,suratgarh,29.181682,73.966239,92.14,57.0,89.0,7.36,1255361,1626805075
114,bacolod,10.621275,122.998251,76.53,93.0,99.0,10.69,1701500,1626805075
116,eufaula,32.090957,-85.375134,85.55,72.0,100.0,7.56,4057493,1626805076
117,mamlyutka,55.127638,68.324601,66.47,71.0,85.0,3.09,1521977,1626805076
118,parkes,-32.273996,146.933832,38.34,83.0,24.0,22.46,2146193,1626805076
119,gremyachye,52.151764,38.693702,78.55,65.0,83.0,7.85,550102,1626805077
120,chelno-vershiny,54.560625,50.9784,67.55,94.0,58.0,9.22,569497,1626805077
121,ostersund,63.340367,14.502913,52.81,63.0,75.0,23.02,2699176,1626805077
122,chardara,41.255394,67.007472,90.0,19.0,67.0,11.21,1524889,1626805077
123,borogontsy,63.516974,131.860491,64.18,83.0,100.0,2.19,2026160,1626805078
124,moroto,2.200678,34.555152,67.66,75.0,44.0,3.06,230088,1626805078
125,wittenbach,47.485137,9.403143,73.29,57.0,0.0,4.61,2658993,1626805078
126,sharan,54.895659,54.180944,68.36,89.0,82.0,1.59,495770,1626805078
127,waingapu,-9.504217,120.900214,80.08,77.0,63.0,12.03,7569197,1626805079
128,puerto madryn,-42.436604,-64.007024,58.64,39.0,77.0,20.09,3840092,1626805079
129,wuwei,38.526815,103.408377,79.12,45.0,39.0,26.89,1803936,1626805079
130,muskegon,43.472791,-86.087244,78.71,54.0,40.0,11.5,4993417,1626805079
131,novopokrovka,46.27041,135.010182,69.3,85.0,28.0,2.48,2018888,1626805080
133,ca mau,8.219403,104.50792,83.05,78.0,53.0,7.81,1905678,1626805080
134,torbat-e jam,35.439115,61.213915,87.4,18.0,31.0,13.24,1159362,1626805080
135,koindu,7.597512,-10.085071,73.63,92.0,65.0,4.03,2275344,1626805081
136,tytuvenai,55.728851,23.349108,69.71,56.0,0.0,11.5,595449,1626805081
137,tsirguliina,57.846066,26.18203,67.95,60.0,75.0,7.29,7522352,1626805081
138,wuhu,31.268862,118.224687,77.13,90.0,100.0,14.07,1796637,1626805081
142,usukhchay,41.371668,47.885345,67.89,76.0,19.0,3.56,477789,1626805082
143,batesville,35.631839,-91.814634,82.2,47.0,4.0,11.32,4100265,1626805083
144,inuvik,66.21137,-133.674552,73.98,47.0,52.0,3.42,6169740,1626805083
145,gorodishche,51.096255,37.943469,74.86,67.0,96.0,5.41,555507,1626805083
146,spring hill,28.764541,-82.45357,89.35,61.0,1.0,9.22,4155751,1626805084
148,ucluelet,48.202743,-124.860988,61.43,79.0,91.0,7.49,5794761,1626805084
149,mihail eminescu,47.826267,26.898072,69.76,96.0,98.0,7.2,673397,1626805084
150,agara,42.147622,43.994464,77.02,35.0,0.0,3.42,611403,1626805085
151,chernenko,55.320328,89.386477,52.38,89.0,83.0,0.81,1511068,1626805085
152,turbat,26.866584,63.345464,88.05,44.0,49.0,8.32,1168446,1626805085
154,seversk,56.795544,84.995692,57.78,85.0,62.0,1.9,1493110,1626805086
155,sangin,32.02138,65.174245,84.69,13.0,1.0,5.35,1145124,1626805086
156,cubarral,3.942611,-74.05796,49.06,79.0,47.0,6.91,3669358,1626805086
157,santa eulalia del rio,38.237066,1.342404,78.58,77.0,0.0,10.38,2511381,1626805086
158,lexington,40.083933,-99.609929,80.89,36.0,1.0,8.63,5063678,1626805087
159,kegayli,43.375038,58.848265,84.34,36.0,2.0,11.16,601417,1626805087
160,morondava,-21.455594,42.595021,76.55,64.0,1.0,10.0,1058390,1626805087
162,el porvenir,13.819483,-87.348981,81.91,42.0,60.0,8.79,3610693,1626805088
163,whitehorse,61.494113,-133.639928,59.86,47.0,83.0,3.36,5951659,1626805088
164,kargil,35.449616,75.875254,45.27,74.0,55.0,2.26,1164709,1626805088
165,leshukonskoye,66.822213,45.929387,51.96,87.0,100.0,3.0,527321,1626805089
166,wasilla,64.197486,-150.990268,71.15,55.0,6.0,4.88,5879092,1626805089
167,alice,27.697696,-98.405668,85.96,61.0,99.0,0.65,4673475,1626805089
168,gillette,44.599934,-105.325924,89.8,24.0,99.0,21.79,5826027,1626805089
169,show low,33.807651,-109.610631,76.3,41.0,98.0,8.05,5320800,1626805090
170,ocos,13.691269,-93.154751,85.87,72.0,83.0,5.08,3592086,1626805090
171,carman,49.465039,-98.31244,69.31,83.0,100.0,3.44,6072606,1626805090
172,sukumo,32.286903,132.753523,80.4,74.0,100.0,21.72,1851462,1626805090
173,marondera,-18.343205,31.363729,53.92,48.0,1.0,6.35,886990,1626805091
174,ayan,58.216826,139.284578,61.68,60.0,94.0,5.1,2125742,1626805091
175,bayan,46.073603,127.878698,72.39,90.0,64.0,1.12,2036102,1626805091
178,manado,2.449418,124.394395,83.93,68.0,34.0,4.72,1980872,1626805092
179,ketchikan,57.235995,-132.345744,44.46,99.0,89.0,1.03,5556338,1626805092
180,zlobin,52.598382,29.774631,69.51,67.0,100.0,6.91,621074,1626805092
181,ramygala,55.460735,24.370351,71.65,74.0,50.0,4.25,595387,1626805093
183,dalby,-28.19186,150.793505,45.82,79.0,52.0,18.37,2162724,1626805093
184,guajara-mirim,-11.168702,-64.764011,88.84,27.0,1.0,3.94,3925000,1626805093
186,umiray,15.126443,121.378926,78.46,94.0,100.0,5.37,1680312,1626805094
187,beberibe,-4.521102,-38.176604,87.26,47.0,79.0,10.89,3393279,1626805094
188,xunchang,28.358095,104.996739,76.01,92.0,39.0,1.99,1788915,1626805094
190,gogrial,8.905464,28.384643,74.01,80.0,82.0,6.49,374739,1626805095
191,zaraza,9.944497,-65.607132,81.12,60.0,50.0,4.5,3625519,1626805095
192,copertino,40.238223,18.111746,81.45,61.0,0.0,9.22,3178370,1626805095
193,bontang,0.458931,117.699529,80.49,85.0,47.0,8.03,1648186,1626805096
194,tshela,-5.045199,12.544504,74.07,76.0,10.0,6.24,2243266,1626805096
196,aktas,49.456253,74.074932,58.84,85.0,59.0,8.79,1522466,1626805096
197,barcelos,0.75211,-61.982785,91.85,46.0,21.0,1.77,3662560,1626805097
198,longlac,51.480331,-86.538861,69.44,29.0,18.0,4.5,5955850,1626805097
200,boyuibe,-20.202259,-62.455718,71.26,14.0,100.0,3.91,3867395,1626805097
201,saltillo,25.122833,-101.128654,70.65,43.0,15.0,8.12,3977395,1626805098
202,boca do acre,-9.152585,-66.796072,89.92,27.0,4.0,4.25,3664956,1626805098
203,zelenoborsk,61.078149,64.177821,66.74,73.0,87.0,3.62,1485286,1626805098
204,rimbey,52.787696,-114.175253,61.2,70.0,71.0,10.63,5904619,1626805098
205,barranco de loba,9.039436,-74.148756,100.67,33.0,30.0,1.52,3689157,1626805099
206,almaznyy,61.73207,114.006033,58.05,80.0,100.0,4.27,2027859,1626805099
207,franca,-20.62995,-47.499254,75.51,5.0,88.0,3.04,3451635,1626805099
208,agapovka,53.176407,59.295642,74.08,51.0,68.0,8.05,584051,1626805099
210,bethanien,-25.99333,16.265838,47.57,49.0,100.0,3.74,3358416,1626805100
211,marystown,47.367315,-54.758209,63.73,98.0,100.0,10.83,6084537,1626805100
212,puerto rondon,5.930072,-70.996197,85.39,63.0,61.0,2.59,3671337,1626805100
213,ingraj bazar,24.884528,88.455283,83.59,81.0,100.0,1.43,1269723,1626805101
214,makubetsu,44.74844,141.675275,67.12,89.0,71.0,3.96,2130389,1626805101
215,casas grandes,30.287145,-108.122529,75.96,48.0,40.0,10.16,4015076,1626805101
216,stilfontein,-26.595995,26.752454,44.08,26.0,1.0,5.75,976897,1626805102
218,borama,10.268674,43.813779,88.43,39.0,100.0,14.65,6268943,1626805102
220,inirida,2.77479,-68.519182,85.3,64.0,56.0,3.2,3681652,1626805103
221,chifeng,43.559637,118.57521,71.65,78.0,37.0,3.29,2038025,1626805103
222,boende,0.467539,20.403162,80.87,45.0,59.0,2.48,216661,1626805103
223,rochegda,62.398824,43.265299,60.84,59.0,82.0,4.68,494884,1626805103
224,novo aripuana,-5.773587,-59.78513,98.13,24.0,0.0,3.44,3663142,1626805104
225,lingao,19.54137,109.580079,78.93,82.0,100.0,6.62,1800234,1626805104
228,pareora,-45.293386,171.219506,47.12,73.0,82.0,10.47,2189146,1626805105
230,puerto del rosario,27.028956,-14.008312,68.16,92.0,1.0,18.63,2462881,1626805105
231,waverly,42.80649,-92.636539,83.95,60.0,1.0,6.55,4851846,1626805106
232,berdigestyakh,60.508233,127.191819,63.52,93.0,72.0,0.76,2019867,1626805106
233,barroquinha,-2.995294,-41.286054,87.78,83.0,54.0,11.41,3406041,1626805106
234,ust-ilimsk,58.082974,102.67775,56.41,97.0,92.0,3.44,2013952,1626805106
235,lebedyan,53.07722,39.21751,71.04,56.0,98.0,6.73,536518,1626805107
236,steamboat springs,40.642308,-106.846433,75.25,30.0,1.0,4.61,5582371,1626805107
238,koforidua,6.193603,-0.065815,77.65,70.0,90.0,6.46,2302135,1626805107
240,amazar,53.004095,121.390043,67.21,94.0,74.0,4.34,2027806,1626805108
241,neiafu,-17.634488,-173.590244,78.78,75.0,60.0,19.44,4032420,1626805108
242,ningan,43.797367,129.096581,66.13,96.0,98.0,1.7,2038052,1626805108
244,sosnovo-ozerskoye,52.443896,111.803357,55.17,72.0,67.0,2.51,2016216,1626805109
245,carroll,41.577296,-94.7405,81.34,61.0,1.0,6.55,4847421,1626805109
246,mrirt,32.693601,-4.316082,92.95,10.0,0.0,5.17,2558122,1626805109
247,leh,34.272316,81.296067,46.98,52.0,93.0,1.5,1279873,1626805110
251,vengurla,15.847692,73.65001,79.43,87.0,100.0,14.14,1253257,1626805111
253,mayya,60.911343,130.843167,67.05,68.0,95.0,3.47,2027786,1626805111
254,providencia,29.303514,-111.749454,98.49,44.0,20.0,4.14,3989590,1626805111
255,samandag,35.775437,35.311283,83.05,67.0,0.0,7.45,173576,1626805112
256,anakapalle,17.822971,82.818596,80.71,76.0,100.0,3.78,1264525,1626805112
257,rairangpur,22.118075,86.14985,78.04,88.0,100.0,3.85,1265830,1626805112
258,union,34.580746,-81.554579,74.59,98.0,100.0,3.74,4600990,1626805113
259,nenjiang,49.535006,125.012491,68.45,92.0,4.0,2.73,2035601,1626805113
260,chapais,54.104099,-76.18563,60.4,48.0,30.0,6.49,5921589,1626805113
261,ishigaki,24.80916,124.449147,83.48,82.0,97.0,33.31,1854588,1626805113
262,xinqing,48.792427,129.328922,68.59,96.0,37.0,4.5,2033667,1626805114
263,ondorhaan,46.263052,111.51205,72.91,56.0,28.0,7.61,2029420,1626805114
264,sarangani,3.868967,124.989126,83.91,68.0,55.0,5.28,1644886,1626805114
265,adet,10.911181,37.576338,53.08,96.0,100.0,1.95,345353,1626805114
266,luebo,-5.275448,20.693049,77.85,26.0,7.0,1.81,210939,1626805115
268,barkhan,29.472208,69.511145,84.94,64.0,23.0,6.62,1183307,1626805115
269,naolinco,19.693437,-96.770301,71.22,58.0,15.0,4.92,3530928,1626805115
270,deming,31.879236,-108.189197,84.11,34.0,49.0,14.36,5462683,1626805116
271,caconda,-14.527678,15.456064,64.89,24.0,1.0,3.98,3348303,1626805116
272,ust-tsilma,65.285188,50.73117,56.34,71.0,74.0,5.01,477940,1626805116
273,tovarkovskiy,53.662825,38.200858,67.64,63.0,42.0,5.99,481938,1626805116
274,hangu,38.994802,118.38482,77.52,89.0,100.0,7.29,1813567,1626805118
275,zyryanka,65.627839,148.999814,59.11,71.0,46.0,4.54,2119283,1626805118
276,teya,60.769437,90.603167,55.0,75.0,91.0,4.45,1495939,1626805118
277,valley city,46.371495,-98.031914,84.04,25.0,32.0,8.63,5060756,1626805119
278,tocaima,4.449583,-74.701194,87.35,47.0,2.0,7.0,3667003,1626805119
279,alanya,36.262119,31.663662,82.72,64.0,0.0,13.65,322887,1626805119
281,garhi yasin,27.869639,68.524783,96.85,39.0,18.0,13.78,1178843,1626805120
282,manturovo,57.95916,44.391313,60.96,90.0,43.0,3.06,521402,1626805120
283,yialos,34.211429,23.294357,78.57,79.0,0.0,8.75,256131,1626805120
284,rab,44.700588,15.012284,62.51,70.0,4.0,5.91,3217624,1626805120
285,gafanha da encarnacao,40.877274,-9.162852,64.99,94.0,85.0,15.7,2733481,1626805121
287,islamkot,25.029208,70.479232,83.03,79.0,82.0,21.45,1176608,1626805121
288,ulkan,57.26546,107.519379,59.23,66.0,67.0,3.38,2020208,1626805122
290,betioky,-24.233607,44.141575,66.97,86.0,9.0,3.51,1066310,1626805122
291,abu zabad,12.485466,29.218171,83.97,54.0,100.0,11.86,380348,1626805122
292,anaconda,46.768001,-113.24327,60.76,37.0,99.0,3.58,5645454,1626805123
293,kamennomostskiy,44.01241,40.110459,70.72,62.0,0.0,3.65,799311,1626805123
294,irinjalakuda,10.329626,76.226401,76.91,93.0,33.0,1.63,1269693,1626805123
295,saposoa,-6.740669,-76.982418,73.87,73.0,64.0,3.74,3692029,1626805123
297,gazi,-4.530313,39.920482,77.45,83.0,12.0,22.88,197514,1626805124
298,wang saphung,17.391035,101.767807,74.55,94.0,100.0,3.24,8040258,1626805124
299,bilibino,67.187534,168.553899,47.82,61.0,100.0,2.71,2126682,1626805124
301,letka,59.479654,49.284761,61.11,87.0,88.0,1.99,535639,1626805125
303,belokurikha,51.949907,84.665576,59.02,94.0,83.0,3.58,1510502,1626805125
305,ust-kuyga,70.218146,135.876536,44.49,90.0,98.0,16.75,2013921,1626805126
306,irbeyskoye,55.133358,96.022575,55.69,96.0,10.0,2.04,1505529,1626805126
308,meadow lake,55.02153,-107.086723,77.43,32.0,0.0,5.35,5896578,1626805127
309,chara,56.985333,117.316076,46.98,97.0,96.0,4.7,2025630,1626805127
310,shangqiu,34.69894,115.662334,73.69,99.0,100.0,6.4,1783934,1626805127
311,truro,50.960692,-5.403004,80.04,75.0,49.0,6.02,6324514,1626805127
314,ambositra,-20.708072,47.4284,54.79,96.0,79.0,2.13,1079088,1626805128
315,sanaur,30.383908,76.507294,77.74,88.0,96.0,7.99,1257482,1626805128
316,loandjili,-5.057005,11.494556,74.93,82.0,2.0,11.12,2258314,1626805129
317,sterling,40.654603,-102.693166,84.45,33.0,15.0,15.43,5578099,1626805129
318,kidal,19.123812,2.306317,102.76,16.0,70.0,14.94,2455290,1626805129
319,brasileia,-10.316743,-69.463139,87.82,27.0,11.0,3.65,3919998,1626805129
320,kuybyshevskiy zaton,55.329463,48.978185,74.12,84.0,98.0,5.32,538049,1626805130
321,bermejo,-22.681811,-64.155472,70.74,19.0,79.0,2.64,3923154,1626805130
323,hokitika,-42.178326,170.503119,55.4,74.0,100.0,20.04,2206895,1626805130
324,ryabovo,59.486817,31.128442,66.42,58.0,65.0,7.29,516710,1626805131
326,livingston,37.378029,-120.788343,89.19,22.0,1.0,5.75,5367427,1626805131
327,divnogorsk,55.346689,92.254052,55.44,92.0,50.0,2.15,1510998,1626805131
328,ingham,-18.709796,145.978936,56.53,45.0,44.0,4.94,2145425,1626805132
329,mlimba,-9.227754,35.758776,69.22,47.0,2.0,3.47,153384,1626805132
330,kremenchuk,49.115936,33.714875,72.32,78.0,54.0,11.39,708431,1626805132
334,sembe,2.169455,14.212193,73.27,76.0,93.0,2.06,2255244,1626805133
335,falun,61.027988,15.901822,61.77,41.0,33.0,8.66,2662517,1626805133
336,koping,59.367809,15.62068,71.53,47.0,80.0,4.65,2715164,1626805134
337,oga,40.728479,138.241225,78.22,84.0,4.0,5.88,2038800,1626805134
338,nizhniy dzhengutay,42.745587,47.248109,71.13,62.0,61.0,7.31,520775,1626805134
339,calvillo,21.962036,-102.671922,76.06,34.0,35.0,2.15,4016086,1626805134
340,whyalla,-32.968384,137.752404,37.06,72.0,83.0,6.29,2058430,1626805135
342,rock springs,42.032924,-109.049046,77.5,29.0,95.0,13.85,5840426,1626805135
343,muswellbrook,-32.211275,150.285002,43.02,82.0,97.0,12.39,2158004,1626805135
346,haibowan,42.057062,107.678994,76.66,50.0,3.0,22.06,2037045,1626805136
347,murray bridge,-35.161771,139.591466,46.35,78.0,11.0,1.1,2065801,1626805136
348,chibombo,-14.112919,27.63927,64.31,34.0,14.0,3.65,908734,1626805137
349,villaviciosa,43.520623,-5.49129,68.88,78.0,1.0,4.43,3129413,1626805137
350,lorain,41.575035,-82.227137,82.47,78.0,3.0,10.94,5161262,1626805137
353,tyup,43.230127,78.44873,66.31,36.0,66.0,10.02,1527121,1626805138
354,morehead,-8.767276,141.442982,71.67,95.0,52.0,4.61,2090495,1626805138
355,warmbad,-29.438544,19.098401,42.6,64.0,99.0,15.5,3352263,1626805138
356,olavarria,-37.242074,-61.375062,61.12,33.0,89.0,11.36,3855104,1626805139
358,delvada,20.666542,71.162267,83.1,83.0,99.0,24.83,1273287,1626805139
360,rantepao,-2.118921,119.333544,74.59,92.0,95.0,3.58,1650903,1626805140
361,dibombari,4.184046,9.6085,76.08,88.0,76.0,3.87,2233100,1626805140
364,santa luzia,-8.321625,-47.669384,99.14,17.0,7.0,7.85,3389557,1626805141
366,klamath falls,41.835236,-122.122282,77.2,27.0,3.0,4.88,5568152,1626805141
367,gejiu,22.957985,102.624629,68.2,99.0,100.0,0.51,1802162,1626805141
369,jacksonville beach,30.378801,-80.914711,91.92,76.0,93.0,10.71,4146354,1626805142
370,rafai,6.502519,23.983632,67.91,87.0,73.0,2.53,236052,1626805142
371,xacmaz,41.525321,48.830534,82.13,66.0,55.0,2.57,584717,1626805142
372,montilla,37.541519,-4.542963,90.05,22.0,0.0,9.48,6357239,1626805143
373,boshnyakovo,49.953953,141.847166,61.36,86.0,96.0,8.16,2126493,1626805143
374,koumra,8.727638,17.253307,76.17,83.0,36.0,1.66,2429605,1626805143
376,vilyuysk,64.923473,120.697429,58.84,80.0,100.0,2.21,2013392,1626805144
377,longonjo,-13.180361,14.73373,70.39,24.0,2.0,2.44,3347853,1626805144
378,chandler,48.366927,-64.982311,64.33,96.0,92.0,4.25,6943816,1626805144
380,rehoboth,-24.010007,16.926618,59.49,36.0,83.0,10.96,3355916,1626805145
381,road town,19.633544,-64.74237,81.41,78.0,71.0,15.35,3577718,1626805145
382,mettur,11.867546,77.865114,79.16,67.0,89.0,5.95,1263101,1626805145
384,massena,44.865697,-74.933888,79.83,61.0,75.0,3.44,5126194,1626805146
385,maarianhamina,61.120894,20.067166,61.48,58.0,5.0,21.63,640406,1626805146
387,misratah,32.165702,15.917578,79.79,69.0,0.0,10.45,2214846,1626805147
388,ankara,39.509828,32.110063,84.13,44.0,0.0,16.31,302525,1626805147
389,yuzhno-yeniseyskiy,59.94422,95.528311,55.72,72.0,95.0,2.24,1492566,1626805147
390,kyren,51.13149,102.366519,45.45,85.0,100.0,0.83,2012544,1626805147
391,guanare,9.124886,-70.004034,79.93,83.0,66.0,3.58,3626660,1626805148
392,tarudant,30.153895,-9.108045,71.87,30.0,0.0,11.9,2545956,1626805148
394,kurilsk,45.330295,147.417992,55.69,94.0,100.0,7.27,2123979,1626805148
395,strezhevoy,61.946434,80.121141,58.73,72.0,97.0,4.68,1540356,1626805149
396,cerro largo,-28.033782,-54.885894,58.55,44.0,99.0,1.81,3467543,1626805149
397,hibbing,47.085637,-92.940199,71.01,50.0,100.0,2.68,5032963,1626805149
398,ambanja,-13.096583,47.42799,78.13,75.0,3.0,6.87,1076105,1626805149
399,ust-omchug,61.010093,150.185317,55.24,79.0,100.0,5.53,2120047,1626805150
401,maues,-3.918956,-57.084657,89.8,44.0,67.0,4.97,3395062,1626805150
402,kampot,10.609949,102.974019,83.19,76.0,100.0,18.28,1831142,1626805150
403,siuna,13.530545,-84.606321,84.63,73.0,64.0,7.25,3616253,1626805151
404,tahta,25.696137,30.167345,97.21,16.0,4.0,10.25,360923,1626805151
405,dali,27.147499,100.139813,40.42,85.0,10.0,0.98,1813253,1626805151
407,satitoa,-14.382056,-169.670349,80.89,74.0,39.0,20.38,5881544,1626805152
408,muhos,64.330937,25.947839,54.72,55.0,81.0,8.7,640718,1626805152
409,terney,45.561713,136.112327,66.49,96.0,47.0,2.15,2015352,1626805152
410,zinder,14.303856,9.121615,92.68,26.0,47.0,3.91,2437798,1626805152
412,udachnyy,68.806742,114.2871,57.56,71.0,63.0,6.44,2018567,1626805153
414,sigmaringen,48.058454,9.18875,69.73,79.0,37.0,5.41,2895891,1626805153
415,lianzhou,24.66998,112.132614,71.65,96.0,95.0,1.79,7767455,1626805154
416,semme,14.764945,-13.086164,96.04,37.0,99.0,6.46,2245666,1626805154
417,nanchong,30.837324,106.414491,77.16,84.0,6.0,2.68,1784131,1626805154
418,trelaze,47.344646,-0.428825,83.14,36.0,2.0,12.95,3029984,1626805155
419,swellendam,-33.609275,20.974015,45.03,81.0,98.0,2.44,961152,1626805155
420,tyrma,50.371242,131.931838,64.06,98.0,92.0,2.8,2014694,1626805155
421,kaili,26.246067,108.498975,71.2,95.0,47.0,2.15,1798784,1626805155
422,mujiayingzi,43.704623,117.464141,62.53,83.0,8.0,3.69,2036062,1626805156
423,kommunar,54.494474,89.347427,54.0,93.0,96.0,1.01,1502758,1626805156
424,atar,19.453112,-11.482719,111.16,5.0,75.0,11.32,2378080,1626805156
425,bogorodskoye,52.177371,139.347875,62.06,79.0,100.0,1.9,2126638,1626805156
426,tabas,33.629555,56.339227,86.07,10.0,0.0,5.26,130261,1626805157
427,biltine,15.940056,19.701161,90.77,36.0,99.0,6.49,2434508,1626805157
428,kuybysheve,44.596711,33.821312,75.58,69.0,26.0,1.97,707526,1626805157
430,price,40.239038,-110.494689,86.7,25.0,99.0,4.27,5774135,1626805158
431,jurm,37.21881,70.403023,76.73,28.0,96.0,2.59,1146727,1626805158
432,mapiripan,2.538206,-72.028583,87.13,54.0,24.0,3.29,3792394,1626805158
433,simao,22.728263,101.351525,68.86,100.0,100.0,1.03,1794209,1626805158
435,betanzos,-19.646694,-65.352587,60.08,24.0,97.0,8.95,3923145,1626805159
436,ureki,42.155216,41.312344,84.25,81.0,0.0,4.03,612366,1626805159
437,tsnori,41.56798,46.079301,87.55,32.0,4.0,4.27,611373,1626805159
438,sokolskoye,57.092385,43.454473,64.96,68.0,59.0,6.93,491145,1626805160
439,bichura,50.516164,108.117257,59.95,64.0,100.0,4.32,2026708,1626805160
440,carupano,11.418328,-62.919901,80.98,80.0,98.0,18.79,3629107,1626805160
442,cagayan de tawi-tawi,7.251893,119.282863,84.25,72.0,100.0,10.04,1721077,1626805161
444,kribi,3.365701,9.531974,78.85,80.0,70.0,12.53,2225940,1626805161
445,machilipatnam,15.47701,81.547296,85.68,74.0,100.0,24.58,1264637,1626805161
446,puntarenas,10.048072,-84.862893,87.66,63.0,66.0,3.47,3622228,1626805162
447,shiyan,32.276031,110.195548,71.37,98.0,76.0,2.42,1783825,1626805162
448,svay rieng,11.0113,105.846967,78.4,83.0,60.0,9.62,1821993,1626805162
449,matsanga,-2.090097,12.476223,74.91,57.0,21.0,3.85,2398929,1626805163
450,ascoli piceno,42.835257,13.61005,78.8,63.0,0.0,1.9,3176855,1626805163
451,bonaventure,47.954935,-65.275821,68.88,88.0,90.0,5.75,6943824,1626805163
452,karaidel,55.937149,57.114161,69.31,76.0,47.0,4.9,552862,1626805163
454,leon valley,29.537635,-98.559398,85.77,64.0,75.0,3.0,4679437,1626805164
455,aksay,50.341784,52.450511,82.4,41.0,86.0,8.5,609977,1626805164
456,west wendover,41.197089,-114.255771,79.14,35.0,1.0,3.33,5703178,1626805164
457,la rioja,-30.132646,-66.283043,64.81,23.0,0.0,6.15,3861824,1626805165
458,jian,26.905984,115.685666,74.86,87.0,100.0,3.18,1796071,1626805165
459,pirgos,34.270458,25.390243,78.44,78.0,0.0,14.03,255242,1626805165
461,uchiza,-8.549223,-75.629913,83.28,55.0,30.0,2.71,3699831,1626805166
462,ivybridge,49.9803,-3.755932,77.99,76.0,5.0,3.53,2650353,1626805166
463,colac,-39.259416,143.828013,45.55,63.0,99.0,19.95,2177810,1626805166
464,orange cove,37.131377,-118.721059,59.9,34.0,0.0,4.59,5550372,1626805166
465,charters towers,-21.608384,145.714791,53.06,40.0,5.0,9.55,2146215,1626805167
466,hirado,34.17871,129.573924,80.28,87.0,100.0,13.85,1854712,1626805167
467,gilgit,35.388959,74.074069,73.9,59.0,28.0,6.46,1181138,1626805167
469,port moresby,-9.336193,147.400851,71.28,91.0,98.0,2.68,2087178,1626805168
472,bertoua,4.311206,13.966459,69.84,94.0,96.0,1.54,2231835,1626805168
473,erzin,46.389766,95.389437,72.91,37.0,4.0,4.63,1515331,1626805169
474,canto do buriti,-8.056858,-43.145992,87.84,34.0,50.0,8.19,3403251,1626805169
475,chokwe,-23.571064,32.373615,65.95,46.0,4.0,5.88,1046058,1626805169
476,katunki,56.827651,43.06676,64.67,64.0,55.0,7.45,567902,1626805169
478,suraabad,41.534626,50.13402,82.78,63.0,8.0,4.63,584991,1626805170
479,uige,-6.930418,15.573266,72.3,23.0,1.0,1.07,2236566,1626805170
480,umm jarr,13.929661,32.337191,91.9,41.0,99.0,1.16,380129,1626805170
481,payson,39.408996,-112.274848,79.09,34.0,86.0,1.99,5538080,1626805171
482,panan,15.206549,120.013347,78.85,87.0,100.0,2.1,1695702,1626805171
483,maun,-19.879304,23.66026,53.6,28.0,2.0,5.61,933366,1626805171
484,trentola-ducenta,41.013931,14.17046,80.69,67.0,0.0,6.91,6535630,1626805171
485,vasai,19.201708,72.282538,84.29,83.0,100.0,24.18,1275248,1626805172
486,bull savanna,17.131684,-77.892562,82.85,84.0,5.0,24.56,3490639,1626805172
487,ilawe,7.548531,4.897174,72.64,97.0,69.0,4.36,2343983,1626805172
488,cabinda,-5.518029,12.435519,72.95,78.0,3.0,7.81,2240354,1626805172
489,halalo,-16.347053,-178.693468,79.97,77.0,9.0,17.72,4036017,1626805173
490,contamana,-6.62339,-74.437775,85.75,40.0,11.0,4.27,3697838,1626805173
491,willowmore,-33.69058,23.590202,42.42,93.0,100.0,6.06,945970,1626805173
493,carauari,-3.780098,-67.006798,87.6,47.0,57.0,3.69,3664502,1626805174
494,kodinsk,57.748533,99.958563,54.48,93.0,1.0,0.36,1503037,1626805174
495,inongo,-1.62734,17.914884,81.93,29.0,38.0,2.51,2315417,1626805174
496,charleston,31.90834,-79.796643,81.55,74.0,99.0,12.26,4595249,1626805174
497,phalodi,27.294034,72.613099,87.06,69.0,100.0,18.45,1259813,1626805175
498,kiunga,-6.528761,139.903062,71.1,97.0,78.0,3.58,2082430,1626805175
499,karkaralinsk,48.544416,77.310286,60.26,80.0,50.0,13.51,1525617,1626805175
500,umba,67.293898,34.532333,51.6,55.0,100.0,5.08,556362,1626805175
501,the pas,53.808995,-101.147127,71.65,53.0,20.0,9.17,5964008,1626805176
502,borzya,49.917139,116.084691,68.83,90.0,96.0,4.5,2031374,1626805176
504,sokolo,14.864416,-6.518979,99.81,29.0,86.0,7.43,2450849,1626805176
505,rockingham,35.077405,-79.864308,81.61,81.0,100.0,3.09,4465198,1626805177
506,jabinyanah,35.001204,11.232183,82.6,67.0,0.0,6.78,2469321,1626805177
507,tofield,53.344489,-112.990465,58.93,50.0,62.0,9.66,6089644,1626805177
509,anadyr,64.414444,173.193085,39.96,87.0,58.0,1.36,2126965,1626805178
510,disa,24.458472,72.25321,82.71,75.0,100.0,17.16,1272513,1626805178
511,mercedes,-34.357829,-65.86939,68.56,19.0,5.0,16.11,3837029,1626805178
512,lebanon,40.516567,-76.413752,83.43,58.0,75.0,5.75,5206038,1626805178
513,kysyl-syr,63.741136,124.094691,59.27,93.0,100.0,6.6,2021017,1626805179
514,gawler,-33.961864,139.408095,41.94,71.0,7.0,6.38,2065769,1626805179
516,nanzhang,31.495983,111.163714,66.78,98.0,100.0,2.19,1816933,1626805179
517,whitecourt,54.768686,-115.938564,62.2,74.0,50.0,8.41,6160291,1626805180
521,avallon,47.218738,4.099783,66.42,73.0,0.0,7.78,6428877,1626805181
522,chaoyang,41.707469,120.06792,67.23,98.0,55.0,3.89,2038120,1626805181
523,khawhai,23.625965,93.305117,60.71,99.0,100.0,0.2,1266821,1626805181
524,mahajanga,-16.105277,44.095643,77.72,74.0,1.0,11.36,1054116,1626805181
525,fort-shevchenko,44.379863,49.090274,83.73,66.0,0.0,14.32,610398,1626805181
526,twin falls,42.071421,-114.967556,73.6,32.0,33.0,2.84,5610054,1626805182
527,tazovskiy,67.808155,78.389782,54.63,68.0,10.0,9.71,1489853,1626805182
528,pyinmana,19.715444,96.634537,71.51,99.0,100.0,1.97,1298987,1626805182
529,tres arroyos,-39.139392,-60.587345,52.34,69.0,85.0,18.52,3846869,1626805182
530,bulgan,48.513766,103.92662,54.12,99.0,100.0,3.83,2031965,1626805183
531,lenger,42.381084,70.648124,50.72,42.0,54.0,2.71,1517501,1626805183
532,aguimes,24.457216,-15.583744,68.25,85.0,1.0,24.76,2463447,1626805183
533,rorvik,67.025462,10.056783,50.58,78.0,97.0,20.51,3141198,1626805183
534,kajaani,64.141748,27.206687,55.54,54.0,83.0,16.2,654901,1626805184
536,portobelo,10.64034,-79.96491,82.99,82.0,51.0,15.35,3702577,1626805184
537,kholm,50.948091,23.516151,71.02,63.0,100.0,9.86,755369,1626805184
538,bouna,9.41972,-3.054537,79.25,70.0,92.0,5.7,2290849,1626805185
539,chulumani,-16.632791,-67.414471,52.16,53.0,92.0,7.56,3920244,1626805185
540,bako,5.373292,35.780091,78.48,54.0,90.0,2.71,331968,1626805185
541,changli,40.274066,118.874968,69.78,97.0,100.0,1.48,1815656,1626805185
542,camenca,47.824109,28.676513,69.84,87.0,95.0,8.19,617372,1626805186
543,aksaray,38.055656,34.121994,76.5,13.0,0.0,3.8,323927,1626805186
544,bauta,23.725877,-82.554084,83.01,77.0,5.0,10.38,3746183,1626805186
545,chernyshevskiy,62.203672,111.392762,60.01,67.0,73.0,4.76,2025456,1626805186
546,lunenburg,42.61464,-71.731362,83.66,63.0,20.0,1.01,4942767,1626805187
548,goure,15.627505,10.4461,99.43,25.0,22.0,6.76,2437797,1626805187
549,kampong thum,13.289745,104.699257,74.7,95.0,100.0,3.53,1831722,1626805187
550,sampit,-0.772138,113.6155,68.65,99.0,41.0,1.34,1624106,1626805188
551,caernarfon,53.048285,-4.534651,75.6,61.0,3.0,12.66,2641745,1626805188
553,el llano,15.130821,-87.834112,86.76,50.0,76.0,2.86,3611356,1626805188
554,yamethin,20.415858,96.039999,73.8,95.0,97.0,14.74,1285899,1626805189
556,sochi,43.427492,39.62251,80.22,74.0,0.0,11.9,803597,1626805189
557,ajaccio,41.384364,8.683721,80.78,75.0,0.0,8.63,2975931,1626805189
558,encheng,22.26256,112.488801,77.54,93.0,100.0,11.39,1817455,1626805190
559,guajara,-2.86645,-57.414585,86.38,58.0,69.0,3.69,3398612,1626805190
560,tahe,52.647494,123.842242,63.68,82.0,16.0,4.14,6958004,1626805190
561,toliary,-23.165457,42.579746,75.72,67.0,0.0,7.0,1055429,1626805191
562,saly,47.946125,20.633963,64.26,86.0,79.0,5.97,715930,1626805191
564,surt,32.338516,16.489306,79.68,68.0,0.0,9.08,2210554,1626805191
565,debre tabor,11.62053,38.162792,49.8,94.0,100.0,3.4,339686,1626805192
566,ji-parana,-10.363711,-61.02635,93.07,26.0,1.0,3.71,3924826,1626805192
567,oume,6.605962,-5.573126,78.49,74.0,87.0,4.16,2282827,1626805192
568,tlapehuala,18.202973,-100.540388,86.29,65.0,100.0,0.92,3981462,1626805192
569,hostotipaquillo,21.535947,-104.040293,76.35,46.0,7.0,1.19,4004738,1626805193
570,lalibela,11.398252,39.0003,69.58,84.0,100.0,0.51,444180,1626805193
571,lircay,-13.104551,-74.553721,46.62,52.0,64.0,5.5,3928317,1626805193
572,gorey,52.648758,-6.432793,75.85,76.0,14.0,4.76,2965828,1626805193
573,guerande,47.422048,-2.64133,84.13,52.0,4.0,14.76,6434493,1626805194
574,tazmalt,35.838949,4.213537,91.74,19.0,0.0,3.22,2477715,1626805194
575,laje,-10.780157,-41.094122,86.16,35.0,37.0,13.0,3457105,1626805194
576,senneterre,48.191118,-76.03823,68.14,35.0,100.0,7.56,6076235,1626805194
578,mehran,30.938953,45.462388,110.01,9.0,0.0,9.08,6776436,1626805195
580,san lawrenz,36.266726,13.585357,79.38,83.0,0.0,5.73,2562816,1626805195
581,akdagmadeni,39.335057,35.81518,80.89,32.0,0.0,5.48,319069,1626805196
582,rach gia,9.708805,105.264858,78.8,88.0,40.0,5.88,1579008,1626805196
583,tucupita,9.367016,-62.211609,81.91,81.0,76.0,5.97,3625929,1626805196
586,lucea,18.81683,-79.345608,84.2,79.0,30.0,18.9,3489331,1626805197
587,ibra,22.377061,58.471865,88.84,51.0,30.0,16.62,289415,1626805197
588,boali,4.575653,18.336086,73.9,81.0,74.0,3.15,2385666,1626805197
590,vernon,48.967514,1.512733,79.72,61.0,1.0,8.7,3030180,1626805198
591,himora,13.688059,36.65669,71.26,95.0,100.0,1.5,376332,1626805198
594,uyovu,-3.189164,31.516377,73.11,31.0,18.0,5.03,149027,1626805199
595,jabiru,-12.046014,133.076029,62.11,69.0,73.0,5.19,7839412,1626805199
596,magdagachi,53.146744,125.836858,62.96,95.0,9.0,0.78,2014743,1626805199
598,elizabeth city,35.958716,-75.131031,78.85,77.0,96.0,9.13,4481427,1626805200
600,torzhok,56.984861,34.968861,61.5,66.0,42.0,5.48,452063,1626805201
601,teul,21.18939,-103.631912,76.69,46.0,15.0,2.19,3981725,1626805201
603,katha,24.689774,96.003704,72.9,98.0,62.0,1.32,1292572,1626805201
604,shawinigan,46.596218,-72.914537,72.27,56.0,92.0,5.75,6145489,1626805203
605,capinopolis,-18.836692,-49.684623,81.97,6.0,61.0,3.44,3467263,1626805203
606,niquelandia,-14.737049,-47.812218,80.89,21.0,1.0,7.67,3456285,1626805203
607,olhao,35.990185,-7.468865,69.4,80.0,0.0,16.22,8012018,1626805204
609,gornozavodsk,46.561832,141.193372,65.7,87.0,81.0,5.59,2125472,1626805204
610,torre-pacheco,37.894547,-0.988058,81.27,55.0,0.0,9.62,2510766,1626805204
611,tarata,-17.39183,-70.033789,47.91,7.0,54.0,11.95,3927774,1626805205
612,guozhen,34.797158,106.848884,66.29,95.0,93.0,4.5,1794486,1626805205
613,kyshtovka,57.82865,76.485647,57.94,94.0,21.0,3.22,1502962,1626805205
614,jinchang,37.945576,102.029563,57.81,50.0,91.0,9.55,1810676,1626805205
615,havre-saint-pierre,53.066485,-63.325166,66.38,34.0,52.0,10.89,6957320,1626805206
617,kyle,30.085925,-97.938015,85.12,68.0,3.0,1.01,4050880,1626805206
618,gramsh,40.871405,20.057737,72.54,64.0,36.0,4.0,783059,1626805206
619,jacareacanga,-6.528511,-58.724958,97.72,22.0,1.0,3.83,3397763,1626805207
620,baracoa,21.684093,-73.512128,82.62,82.0,77.0,20.54,3572154,1626805207
621,pangody,71.267044,74.673455,59.09,66.0,100.0,12.88,1507203,1626805207
622,zhigalovo,55.750991,105.280277,58.98,60.0,100.0,2.71,2017723,1626805207
624,kurmanayevka,52.138967,51.772587,72.36,74.0,77.0,2.98,555717,1626805208
625,batangafo,7.465692,18.187218,72.59,89.0,21.0,3.89,2389691,1626805208
626,lamar,39.206796,-102.629274,81.48,38.0,15.0,14.2,5427526,1626805209
627,manubah,36.708593,9.960993,80.28,37.0,1.0,9.57,2473823,1626805209
628,edgewater,29.163693,-80.655424,87.6,76.0,71.0,13.04,4169033,1626805209
629,berceni,44.894069,26.113191,76.35,70.0,21.0,6.76,668911,1626805209
630,babanusah,11.518726,28.028353,84.49,54.0,99.0,11.03,379535,1626805210
631,bracebridge,44.996851,-79.115482,64.13,94.0,90.0,0.0,6084944,1626805210
632,storslett,68.719741,21.328856,39.25,75.0,94.0,21.47,605314,1626805210
633,middle island,16.468713,-63.687775,81.39,76.0,8.0,17.11,3575384,1626805210
635,eten,-7.122543,-80.12051,69.04,87.0,4.0,9.4,3697083,1626805211
636,ercis,39.090322,43.336198,70.43,33.0,4.0,1.79,315530,1626805211
637,liverpool,42.697029,-63.894436,67.96,90.0,95.0,11.52,6058237,1626805211
638,kondinskoye,61.167518,67.278457,65.86,64.0,75.0,6.98,1503772,1626805212
639,ko samui,9.930795,99.835747,83.66,73.0,100.0,19.3,6698659,1626805212
640,alasehir,38.276282,28.661222,82.96,44.0,0.0,8.61,301731,1626805212
641,mbandaka,0.559966,18.256351,79.41,46.0,42.0,0.27,8070734,1626805212
642,tunduru,-11.740508,37.572854,78.87,37.0,76.0,3.58,878054,1626805213
643,zaozerne,44.712283,31.866889,80.71,74.0,3.0,9.06,461727,1626805213
644,afua,-0.175952,-50.517975,85.91,62.0,18.0,6.87,3408269,1626805213
646,sarkand,45.092115,80.773496,54.59,54.0,32.0,3.56,1521330,1626805214
647,mirnyy,62.608936,113.932442,59.2,80.0,96.0,4.18,2019951,1626805214
648,edd,14.759658,41.169405,90.09,64.0,100.0,4.41,338345,1626805214
649,eskasem,37.82574,72.068324,34.02,64.0,98.0,6.02,1220685,1626805214
650,turkmenabat,38.56122,63.061178,92.23,14.0,38.0,8.93,1219651,1626805215
651,afmadu,0.454544,41.163569,79.54,54.0,100.0,20.89,56083,1626805215
652,lewisporte,49.392124,-55.161146,73.06,82.0,99.0,14.92,6055114,1626805215
654,tawkar,17.234153,38.899961,91.54,47.0,100.0,14.99,448502,1626805216
655,kosh-agach,49.269321,88.335204,46.22,66.0,46.0,3.24,1515704,1626805216
656,grand island,41.689474,-98.669575,80.46,41.0,12.0,8.79,5069397,1626805216
657,haapiti,-18.056875,-150.828509,77.99,77.0,5.0,23.94,4034438,1626805216
658,balao,-2.540642,-79.849393,78.08,65.0,98.0,5.3,3653882,1626805217
659,salto del guaira,-24.072642,-54.306414,64.02,40.0,95.0,3.94,3437148,1626805217
660,bronkhorstspruit,-25.890478,28.581629,49.42,33.0,0.0,5.79,963049,1626805217
662,xai-xai,-25.048794,33.691363,65.86,87.0,13.0,8.03,1024552,1626805218
663,derzhavinsk,50.643239,66.072741,68.97,54.0,34.0,11.1,1524606,1626805218
664,severomorsk,68.994842,33.961538,49.01,78.0,98.0,11.01,6696921,1626805218
665,guabito,10.183176,-82.164627,82.9,72.0,84.0,4.5,3621430,1626805219
668,codajas,-4.473449,-62.164353,94.19,34.0,4.0,4.0,3664525,1626805219
669,kashi,39.617513,75.365134,57.25,53.0,100.0,4.97,1280849,1626805220
670,macae,-22.479691,-41.798658,71.65,46.0,0.0,6.91,3461376,1626805220
671,veseloyarsk,50.845271,80.675807,66.11,60.0,100.0,12.15,1525134,1626805220
672,el higo,21.791697,-98.499559,89.51,56.0,6.0,4.52,3528894,1626805220
673,korem,12.219272,39.594036,69.98,74.0,100.0,2.71,329586,1626805221
674,berezovyy,50.79408,134.628328,61.43,80.0,100.0,4.38,2025579,1626805221
675,malakal,8.26123,31.72182,74.66,81.0,64.0,3.29,408662,1626805221
677,thio,-21.507238,166.494459,62.67,80.0,0.0,5.88,2138101,1626805222
678,hermosillo,29.442519,-111.000106,93.65,53.0,14.0,3.0,3982846,1626805222
680,fairmont,39.42979,-79.967493,81.14,60.0,0.0,4.61,4807310,1626805223
681,vossevangen,60.679517,6.628155,57.22,66.0,99.0,3.15,3131329,1626805223
682,shepetivka,50.461862,27.16566,66.92,78.0,100.0,1.99,704968,1626805223
683,lucatan,6.884128,126.59351,83.7,72.0,87.0,11.32,1705372,1626805223
684,nefteyugansk,61.2789,72.887267,66.49,68.0,84.0,6.78,7536147,1626805224
685,atherton,-17.584699,144.857647,58.89,76.0,83.0,9.44,2145478,1626805224
686,quang ngai,14.922892,109.229148,84.45,71.0,100.0,10.47,1568770,1626805224
687,sikasso,11.839986,-5.764417,89.31,50.0,35.0,2.57,2454390,1626805224
688,oyugis,-0.428992,34.65344,69.39,67.0,66.0,2.19,181702,1626805225
689,muyezerskiy,64.289116,32.006597,54.43,51.0,82.0,8.23,551166,1626805225
691,manzanillo,19.067953,-104.432213,86.11,74.0,40.0,11.5,3983689,1626805225
692,fatikchhari,22.552863,91.335865,82.85,84.0,100.0,14.99,1185120,1626805226
693,emba,49.128154,58.098346,82.44,28.0,63.0,13.67,609924,1626805226
694,camargo,27.894244,-104.589364,81.64,38.0,71.0,12.77,4013724,1626805226
696,bukan,36.686804,46.374622,84.92,19.0,1.0,5.97,117793,1626805227
698,colinas,-6.056988,-44.045646,90.73,33.0,16.0,7.87,3401963,1626805227
699,cooma,-36.876793,148.853341,33.82,92.0,100.0,10.6,7839698,1626805227
700,monywa,22.429493,94.89731,80.73,83.0,98.0,9.93,1308522,1626805228
701,yingcheng,24.283025,113.106395,75.42,94.0,88.0,2.13,1795351,1626805228
703,sao domingos,-13.625896,-46.777702,94.73,17.0,11.0,5.48,3461641,1626805228
704,abbeville,29.442833,-92.691934,81.01,81.0,100.0,6.26,4344530,1626805229
705,beni,1.407235,29.320713,66.52,94.0,64.0,0.92,219057,1626805229
706,tommot,57.860473,127.652925,61.36,86.0,79.0,5.7,2020871,1626805229
707,pitsunda,42.460628,39.813195,82.45,75.0,0.0,7.36,615460,1626805229
709,ville-marie,47.275604,-79.203204,57.79,90.0,100.0,5.17,5896151,1626805230
710,dicabisagan,16.788323,123.414223,78.8,85.0,100.0,8.88,1715015,1626805230
711,tubruq,30.076712,23.853877,93.51,23.0,0.0,6.35,7602688,1626805230
715,dobre miasto,53.886839,20.323759,69.87,75.0,73.0,6.31,770025,1626805231
716,asilah,35.18104,-6.330649,71.38,83.0,7.0,13.02,2543549,1626805232
718,maloshuyka,64.258544,37.303036,51.91,89.0,93.0,7.14,519705,1626805232
720,guatire,10.907055,-66.004732,79.38,84.0,67.0,16.62,3639526,1626805233
722,tete,-16.381731,32.708215,68.31,47.0,1.0,3.04,1043298,1626805233
723,mahadday weyne,4.862433,46.250297,79.39,52.0,60.0,23.76,62821,1626805234
724,tortoli,39.228925,10.723885,78.87,74.0,0.0,9.15,2524033,1626805234
725,ekhabi,53.513732,142.879242,53.6,92.0,100.0,11.59,2122614,1626805234
726,jubayl,34.475657,35.486169,81.75,69.0,0.0,14.43,280328,1626805234
727,arman,59.718866,148.727999,50.94,89.0,92.0,1.14,2116271,1626805235
728,vredendal,-31.796264,19.133027,43.83,76.0,22.0,12.03,3363675,1626805235
729,torrijos,39.623587,-4.302186,91.33,14.0,23.0,11.12,2513935,1626805235
730,petropavlovsk-kamchatskiy,53.420289,159.847375,53.6,92.0,17.0,5.91,2122104,1626805235
731,adilabad,19.668247,78.495271,77.14,88.0,100.0,13.65,7302812,1626805236
732,catalina,48.339239,-52.920397,59.18,99.0,100.0,16.73,6112046,1626805236
733,bani walid,31.705515,14.123468,83.8,41.0,0.0,17.18,2218840,1626805236
734,koppies,-27.043007,27.695378,48.83,30.0,0.0,5.91,987875,1626805236
735,turkistan,42.503009,67.547881,91.04,25.0,18.0,10.98,1520296,1626805237
736,verkhoyansk,66.680915,132.701068,59.32,74.0,100.0,6.64,2013465,1626805237
737,uyuni,-19.831897,-66.996,52.65,17.0,14.0,12.03,3919884,1626805237
738,tumut,-35.152331,147.942181,35.69,95.0,53.0,8.9,2145884,1626805237
739,fountain,38.610459,-104.105738,83.19,35.0,17.0,12.59,5442076,1626805238
740,bhag,29.090174,68.406077,97.86,46.0,3.0,19.33,1182872,1626805238
741,bereda,11.761523,52.369194,77.36,82.0,79.0,35.25,73685,1626805238
744,tanabe,33.467935,135.613682,75.0,89.0,22.0,9.26,1851383,1626805239
746,ushumun,52.314884,125.791952,65.62,96.0,1.0,2.64,2034615,1626805240
747,pavlogradka,54.295402,73.801681,64.83,72.0,80.0,7.05,1495480,1626805240
748,gangotri,32.156377,78.800935,52.61,73.0,98.0,7.11,8056119,1626805240
749,bateria,11.113514,124.069437,81.34,77.0,97.0,11.95,1726225,1626805241
752,lucapa,-8.094439,21.635139,75.78,22.0,25.0,2.04,145724,1626805241
753,paso de patria,-27.250587,-58.498355,53.71,44.0,98.0,0.96,3429156,1626805242
754,riviere-au-renard,49.581141,-64.187911,59.59,85.0,100.0,13.24,6111957,1626805242
755,villa carlos paz,-31.059999,-65.976162,64.04,23.0,0.0,14.36,3859437,1626805242
757,beri,28.607474,76.488069,77.13,89.0,100.0,6.71,1276437,1626805243
759,anastacio,-20.824804,-56.063722,76.17,12.0,100.0,3.11,3456288,1626805243
760,seymchan,63.034904,153.379175,59.9,60.0,88.0,4.94,2120900,1626805243
761,venezuela,21.125605,-79.039867,83.3,78.0,12.0,5.37,3561667,1626805244
762,cedral,23.965009,-101.290199,75.31,38.0,1.0,6.71,3997995,1626805244
763,paranagua,-25.466967,-48.545369,73.33,56.0,52.0,3.6,3455070,1626805244
764,placido de castro,-9.47854,-66.426348,89.58,27.0,6.0,4.27,3662784,1626805245
765,koshurnikovo,53.89043,93.834486,58.26,95.0,50.0,2.04,1502389,1626805245
768,igrim,64.025762,62.923928,60.03,64.0,50.0,4.14,1493049,1626805246
769,zhanatas,43.018192,69.56464,83.01,29.0,12.0,6.96,1524871,1626805246
770,ondjiva,-16.787883,14.827169,66.96,24.0,1.0,7.61,3349096,1626805246
771,ejea de los caballeros,42.312456,-1.099024,92.55,34.0,15.0,12.86,3107275,1626805246
772,karamay,45.668426,84.295622,77.05,26.0,7.0,3.36,1529626,1626805247
773,larsnes,63.162434,5.186456,52.92,65.0,100.0,7.47,3136903,1626805247
774,magadan,58.949013,150.487304,53.64,85.0,78.0,15.59,2123628,1626805247
775,mocajuba,-2.633444,-49.194666,91.54,48.0,23.0,1.34,3394745,1626805247
776,north las vegas,37.191571,-115.460153,88.32,37.0,9.0,3.91,5499105,1626805248
778,anandnagar,27.121758,83.197562,80.4,90.0,88.0,4.99,1278682,1626805248
779,aleksandrovskoye,44.716334,42.9099,81.68,30.0,0.0,3.33,582993,1626805248
780,bicaz chei,46.794043,25.742073,55.89,98.0,86.0,3.94,684915,1626805249
782,sciacca,37.021185,12.818373,84.11,80.0,0.0,16.82,2523194,1626805249
783,santa maria do para,-1.54981,-47.701716,85.68,70.0,17.0,6.93,3388869,1626805249
784,raudeberg,62.618617,4.627841,54.09,71.0,45.0,10.89,3156680,1626805250
785,puerto ayacucho,5.146887,-65.18452,65.46,88.0,78.0,0.2,3628052,1626805250
786,miraflores,0.733002,-71.64926,80.1,78.0,55.0,3.22,3674740,1626805250
787,mount abu,24.659488,72.803247,72.93,78.0,100.0,13.67,1279396,1626805251
788,roros,62.198315,12.962993,49.33,62.0,16.0,19.57,7626330,1626805251
789,braganca,-1.139197,-46.705292,81.9,81.0,34.0,4.63,3405006,1626805251
790,bartlesville,36.65046,-95.866333,83.95,61.0,40.0,5.01,4554708,1626805251
791,shirochanka,46.477616,38.440418,81.41,58.0,0.0,6.51,517959,1626805252
792,north platte,42.338844,-100.244327,78.6,40.0,47.0,11.43,5064663,1626805252
793,canton,32.982384,-89.850869,85.44,66.0,39.0,1.07,4427960,1626805252
794,hay river,58.725421,-113.107044,76.42,42.0,76.0,2.98,5955793,1626805252
795,lalomanu,-14.357634,-171.292056,80.67,73.0,58.0,21.63,4035209,1626805253
796,zhangye,38.179623,99.747346,45.95,80.0,100.0,3.56,1796356,1626805253
797,cao bang,22.713608,106.773893,73.96,93.0,67.0,2.55,1802249,1626805253
798,natchez,31.64252,-91.513631,78.85,74.0,40.0,0.0,4324293,1626805253
799,winsum,53.574541,6.436858,66.27,75.0,18.0,11.27,2946206,1626805254
800,langsa,4.042828,97.232546,62.28,94.0,92.0,3.62,1215638,1626805254
801,carinhanha,-14.066634,-43.861985,91.4,21.0,41.0,11.63,3466950,1626805254
802,agua branca,-5.761971,-42.592162,96.37,24.0,29.0,2.13,3408221,1626805254
803,san alberto,-25.285226,-54.861628,63.09,48.0,0.0,4.61,3438872,1626805255
805,daru,-9.776159,144.150441,78.33,79.0,88.0,21.5,2098329,1626805255
806,alihe,49.613845,123.909847,67.91,94.0,0.0,2.66,2036597,1626805255
807,jetpur,21.933521,70.533833,82.92,81.0,100.0,18.75,1269065,1626805256
808,poing,48.143329,11.816853,70.83,60.0,22.0,2.19,2865362,1626805256
809,mancio lima,-7.895455,-73.177834,84.02,37.0,45.0,3.6,3663516,1626805256
810,calbuco,-42.3257,-72.461295,51.71,85.0,73.0,0.13,3895642,1626805256
812,okhotsk,58.407486,143.001444,57.15,84.0,80.0,21.32,2122605,1626805257
813,iki-burul,45.602972,44.878381,93.16,19.0,0.0,7.65,557413,1626805257
814,flagstaff,35.713274,-111.197476,90.54,32.0,84.0,9.13,5305191,1626805257
815,ironton,38.851189,-82.599371,84.07,44.0,0.0,3.04,4520081,1626805258
816,sharjah,24.911099,56.463765,93.49,59.0,99.0,6.53,286402,1626805258
819,san diego de la union,21.454444,-100.79428,73.15,41.0,100.0,7.58,3987309,1626805259
820,sayhat,26.176923,50.12989,97.07,63.0,0.0,10.36,109323,1626805259
821,vestmanna,62.759376,-7.337979,52.79,94.0,100.0,11.7,2622677,1626805259
822,theologos,40.340296,24.803238,78.85,78.0,0.0,8.05,6692234,1626805259
823,sotnikovo,52.270875,107.429706,56.3,76.0,74.0,3.13,2021987,1626805260
824,camacupa,-10.413456,17.727857,71.19,26.0,0.0,3.04,2239858,1626805260
825,kalmar,56.301172,16.536585,71.06,64.0,72.0,18.7,2691348,1626805260
826,slavutych,51.672697,30.82444,69.85,69.0,100.0,4.79,702477,1626805260
827,poykovskiy,62.143296,72.890961,60.58,67.0,88.0,10.8,1503773,1626805261
828,betania,5.614105,-75.75198,71.55,37.0,3.0,2.28,3667473,1626805261
829,ndioum,18.130205,-13.911941,102.4,22.0,21.0,11.16,2375742,1626805261
831,masunga,-20.682674,27.495968,55.36,33.0,0.0,2.59,933390,1626805262
832,ocampo,28.595835,-103.174602,88.29,36.0,29.0,8.7,5517580,1626805262
833,mariahu,25.521508,82.670686,80.55,94.0,90.0,3.44,1263523,1626805262
834,fort dodge,42.532525,-93.668831,82.13,65.0,1.0,8.05,4881096,1626805263
835,nyagan,61.869006,65.234816,66.47,70.0,95.0,5.88,1496476,1626805263
836,priego de cordoba,37.361774,-4.262061,85.93,17.0,0.0,10.78,6357253,1626805263
837,fevralsk,54.243118,129.976245,63.21,98.0,73.0,4.45,2027748,1626805263
838,general roca,-39.912065,-67.526554,61.32,47.0,100.0,5.14,3838830,1626805264
839,myski,54.240831,87.899565,57.97,82.0,87.0,3.65,1507801,1626805264
841,boa esperanca,-21.011973,-45.458705,77.05,9.0,56.0,5.12,3459681,1626805264
842,cabcaben,14.457218,120.557973,77.36,87.0,100.0,11.1,1721658,1626805265
843,sosnogorsk,63.206573,54.376225,63.45,52.0,100.0,4.45,471308,1626805265
845,sidi ali,35.541593,0.38865,88.14,29.0,0.0,9.44,2476700,1626805265
848,sakaraha,-22.726545,45.243593,64.44,71.0,85.0,9.73,1066650,1626805266
849,ha tinh,18.616303,107.050742,85.77,76.0,100.0,16.67,1581047,1626805267
850,san joaquin,-19.31158,-59.773292,78.31,11.0,100.0,3.74,3444176,1626805267
851,merritt,49.884445,-120.533839,67.41,31.0,0.0,7.94,6115259,1626805267
852,port arthur,29.371134,-93.589375,82.9,66.0,90.0,6.49,4318695,1626805267
853,kecskemet,46.921627,19.710998,74.55,50.0,0.0,16.11,3050434,1626805268
854,sapa,4.46638,120.996563,83.77,71.0,40.0,2.68,1687343,1626805268
856,jawhar,2.311682,46.26262,77.63,84.0,27.0,21.54,63344,1626805268
857,narrabri,-31.144732,149.269209,40.32,87.0,98.0,14.2,2170540,1626805269
858,sabinas hidalgo,26.364833,-99.969158,86.25,42.0,81.0,9.98,3988327,1626805269
859,kudat,7.275718,117.402053,83.05,78.0,96.0,13.98,7603928,1626805269
860,yanchukan,56.180696,112.495521,55.92,92.0,3.0,1.41,2018813,1626805269
861,naftah,32.858682,7.776668,98.42,16.0,0.0,12.71,2497406,1626805270
862,disna,55.574164,28.17378,64.49,67.0,13.0,8.32,629055,1626805270
863,potchefstroom,-26.335249,26.82606,46.06,30.0,0.0,9.22,944531,1626805270
864,cambe,-23.145038,-51.245552,71.98,23.0,100.0,6.4,3467978,1626805270
867,miles city,46.713056,-106.979942,85.68,31.0,100.0,13.62,5658541,1626805271
869,orapa,-21.019431,25.350321,56.88,36.0,1.0,2.37,933186,1626805272
870,maneadero,31.339099,-116.549063,85.08,78.0,73.0,16.98,3996737,1626805272
871,florence,38.895295,-84.787888,84.34,61.0,20.0,1.01,4263736,1626805272
872,ayia galini,35.043958,24.488941,78.35,80.0,3.0,13.47,264260,1626805272
873,nobeoka,32.169055,132.200818,79.99,76.0,100.0,21.16,1849621,1626805273
874,fukue,31.711443,127.690686,81.57,77.0,100.0,15.32,1854585,1626805273
875,tonj,7.133851,29.429691,74.05,79.0,77.0,3.09,367927,1626805273
876,qostanay,53.469937,63.742702,66.2,65.0,54.0,3.78,1526333,1626805273
877,tsabong,-25.403689,21.857478,60.87,24.0,31.0,7.74,933657,1626805274
878,mouila,-2.104292,10.878852,76.64,63.0,20.0,9.1,2397466,1626805274
879,dossor,47.280647,53.186783,90.45,29.0,98.0,6.58,610389,1626805274
880,dujuma,1.897369,42.384777,79.21,56.0,70.0,21.14,52381,1626805274
882,nguru,12.931776,10.237963,92.8,38.0,34.0,8.41,2347041,1626805275
883,siverskiy,59.261332,30.012246,65.19,61.0,69.0,6.78,500996,1626805275
884,igarka,68.356591,86.603276,49.33,71.0,7.0,7.25,1491600,1626805276
885,kathmandu,31.595003,86.289931,50.76,60.0,97.0,4.45,1280645,1626805276
886,simav,38.941126,29.070283,73.18,35.0,0.0,8.14,302787,1626805276
887,pudozh,61.419881,37.297493,60.01,59.0,86.0,5.91,504269,1626805276
888,qinhuangdao,40.496089,119.385536,68.36,96.0,100.0,2.62,2053438,1626805277
889,kapoeta,5.505798,34.768823,72.1,73.0,100.0,2.73,408668,1626805277
890,sikonge,-5.891374,32.29753,71.15,29.0,8.0,4.43,149929,1626805277
891,chichibu,35.844895,138.920752,56.46,92.0,4.0,2.15,1854788,1626805277
892,malaya vishera,58.463669,32.14206,61.3,66.0,62.0,4.81,519324,1626805278
893,vanavara,60.368187,104.826001,55.9,97.0,100.0,3.8,2013727,1626805278
894,kemijarvi,66.368802,26.742446,47.75,78.0,86.0,4.27,639890,1626805278
895,gornyak,50.857965,81.385158,63.23,77.0,100.0,9.53,1516590,1626805278
896,nurota,41.432881,65.367059,91.89,20.0,53.0,14.03,1512675,1626805279
898,krasnyy yar,47.196065,48.666847,89.65,29.0,79.0,9.13,580491,1626805279
899,yunjinghong,21.632748,99.964621,70.68,100.0,100.0,0.45,1790518,1626805279
900,troitskoye,49.304077,137.367175,68.52,63.0,95.0,3.74,2025197,1626805280
901,lisakovsk,51.3056,62.616536,70.57,52.0,8.0,7.63,1521671,1626805280
902,dagana,16.096021,-15.299343,100.56,28.0,91.0,4.16,2250139,1626805280
905,paliyad,22.378163,71.651202,83.16,74.0,99.0,17.56,1260706,1626805281
906,oranzherei,45.527823,47.801855,85.98,61.0,16.0,12.66,551846,1626805281
908,mawlaik,23.226927,95.041472,76.89,95.0,99.0,4.43,1298480,1626805282
909,fuglebjerg,55.134789,11.557856,69.39,68.0,92.0,16.98,2616037,1626805282
910,nuevo progreso,23.1464,-96.646009,84.18,71.0,43.0,6.87,3522526,1626805282
911,nueva loja,-0.921612,-76.670749,80.42,85.0,100.0,4.0,3830306,1626805282
912,krasnoarmeysk,53.001816,69.390039,58.44,75.0,47.0,5.03,1535595,1626805283
915,princeton,48.523575,-120.695755,64.4,33.0,0.0,5.1,5802694,1626805283
916,vieques,16.955176,-64.751714,81.55,77.0,28.0,19.93,4795677,1626805284
917,dauriya,48.994951,115.806731,68.7,86.0,99.0,4.25,2029130,1626805284
918,adre,13.487419,22.73183,77.38,64.0,86.0,10.85,379302,1626805284
919,mengcheng,32.992975,116.342377,77.05,94.0,96.0,7.72,1802803,1626805284
920,botwood,48.707716,-55.702122,70.95,97.0,100.0,8.01,5964378,1626805285
922,nalagarh,30.967927,76.797427,76.95,89.0,96.0,2.55,7279742,1626805285
923,jamame,0.25402,43.172609,76.68,81.0,31.0,16.91,56166,1626805285
924,lamont,54.139406,-112.893095,59.47,88.0,61.0,8.05,6176573,1626805286
925,elat,28.52352,35.366535,81.64,20.0,8.0,9.15,358245,1626805286
926,riachao das neves,-11.407628,-44.300658,94.15,15.0,0.0,8.16,3451478,1626805286
927,broome,-17.231855,123.222196,70.32,50.0,46.0,8.93,2072924,1626805286
928,san juan del sur,10.914286,-86.467996,82.99,81.0,61.0,25.84,3616726,1626805287
929,kurush,41.113679,48.1026,46.02,65.0,39.0,2.24,585231,1626805287
930,sergeyevka,44.474064,131.786432,71.67,99.0,39.0,4.68,2012573,1626805287
931,sovetskiy,67.7015,64.998179,50.85,95.0,81.0,15.01,1491229,1626805287
933,pergamino,-33.940726,-60.849002,65.01,36.0,1.0,12.8,3862719,1626805288
